[
    {
     "name": "Abidjan",
     "lon": -4.00167,
     "lat": 5.35444,
     "country": "Ivory Coast"
    },
    {
     "name": "Abu Dhabi",
     "lon": 54.39696,
     "lat": 24.45118,
     "country": "United Arab Emirates"
    },
    {
     "name": "Abuja",
     "lon": 7.49508,
     "lat": 9.05785,
     "country": "Nigeria"
    },
    {
     "name": "Accra",
     "lon": -0.1969,
     "lat": 5.55602,
     "country": "Ghana"
    },
    {
     "name": "Addis Ababa",
     "lon": 38.74689,
     "lat": 9.02497,
     "country": "Ethiopia"
    },
    {
     "name": "Ahmedabad",
     "lon": 72.58727,
     "lat": 23.02579,
     "country": "India"
    },
    {
     "name": "Aleppo",
     "lon": 37.16117,
     "lat": 36.20124,
     "country": "Syria"
    },
    {
     "name": "Alexandria",
     "lon": 29.91582,
     "lat": 31.20176,
     "country": "Egypt"
    },
    {
     "name": "Algiers",
     "lon": 3.08746,
     "lat": 36.73225,
     "country": "Algeria"
    },
    {
     "name": "Almaty",
     "lon": 76.92861,
     "lat": 43.25667,
     "country": "Kazakhstan"
    },
    {
     "name": "Amman",
     "lon": 35.94503,
     "lat": 31.95522,
     "country": "Jordan"
    },
    {
     "name": "Amsterdam",
     "lon": 4.88969,
     "lat": 52.37403,
     "country": "Netherlands"
    },
    {
     "name": "Anchorage",
     "lon": -149.90028,
     "lat": 61.21806,
     "country": "United States"
    },
    {
     "name": "Andorra la Vella",
     "lon": 1.52109,
     "lat": 42.50779,
     "country": "Andorra"
    },
    {
     "name": "Ankara",
     "lon": 32.85427,
     "lat": 39.91987,
     "country": "Turkey"
    },
    {
     "name": "Antananarivo",
     "lon": 47.53613,
     "lat": -18.91368,
     "country": "Madagascar"
    },
    {
     "name": "Apia",
     "lon": -171.76666,
     "lat": -13.83333,
     "country": "Samoa"
    },
    {
     "name": "Arnold",
     "lon": -120.351935,
     "lat": 38.255366,
     "country": "United States"
    },
    {
     "name": "Ashgabat",
     "lon": 58.38333,
     "lat": 37.95,
     "country": "Turkmenistan"
    },
    {
     "name": "Asmara",
     "lon": 38.93184,
     "lat": 15.33805,
     "country": "Eritrea"
    },
    {
     "name": "Asuncion",
     "lon": -57.647,
     "lat": -25.28646,
     "country": "Paraguay"
    },
    {
     "name": "Athens",
     "lon": 23.72784,
     "lat": 37.98376,
     "country": "Greece"
    },
    {
     "name": "Auckland",
     "lon": 174.76349,
     "lat": -36.84853,
     "country": "New Zealand"
    },
    {
     "name": "Avarua",
     "lon": -159.77545,
     "lat": -21.2075,
     "country": "Cook Islands"
    },
    {
     "name": "Baghdad",
     "lon": 44.40088,
     "lat": 33.34058,
     "country": "Iraq"
    },
    {
     "name": "Baku",
     "lon": 49.89201,
     "lat": 40.37767,
     "country": "Azerbaijan"
    },
    {
     "name": "Bamako",
     "lon": -8,
     "lat": 12.65,
     "country": "Mali"
    },
    {
     "name": "Banda Aceh",
     "lon": 95.33333,
     "lat": 5.54167,
     "country": "Indonesia"
    },
    {
     "name": "Bandar Seri Begawan",
     "lon": 114.94006,
     "lat": 4.89035,
     "country": "Brunei"
    },
    {
     "name": "Bandung",
     "lon": 107.60694,
     "lat": -6.92222,
     "country": "Indonesia"
    },
    {
     "name": "Bangkok",
     "lon": 100.50144,
     "lat": 13.75398,
     "country": "Thailand"
    },
    {
     "name": "Bangui",
     "lon": 18.55496,
     "lat": 4.36122,
     "country": "Central African Republic"
    },
    {
     "name": "Banjul",
     "lon": -16.57803,
     "lat": 13.45274,
     "country": "Gambia"
    },
    {
     "name": "Barcelona",
     "lon": 2.15899,
     "lat": 41.38879,
     "country": "Spain"
    },
    {
     "name": "Barranquilla",
     "lon": -74.78132,
     "lat": 10.96854,
     "country": "Colombia"
    },
    {
     "name": "Basrah",
     "lon": 47.7804,
     "lat": 30.50852,
     "country": "Iraq"
    },
    {
     "name": "Basse-Terre",
     "lon": -61.73214,
     "lat": 15.99714,
     "country": "Guadeloupe"
    },
    {
     "name": "Basseterre",
     "lon": -62.72499,
     "lat": 17.2955,
     "country": "Saint Kitts and Nevis"
    },
    {
     "name": "Beijing",
     "lon": 116.39723,
     "lat": 39.9075,
     "country": "China"
    },
    {
     "name": "Beirut",
     "lon": 35.50157,
     "lat": 33.89332,
     "country": "Lebanon"
    },
    {
     "name": "Bekasi",
     "lon": 106.9896,
     "lat": -6.2349,
     "country": "Indonesia"
    },
    {
     "name": "Belem",
     "lon": -48.50444,
     "lat": -1.45583,
     "country": "Brazil"
    },
    {
     "name": "Belgrade",
     "lon": 20.46513,
     "lat": 44.80401,
     "country": "Serbia"
    },
    {
     "name": "Belmopan",
     "lon": -88.76667,
     "lat": 17.25,
     "country": "Belize"
    },
    {
     "name": "Belo Horizonte",
     "lon": -43.93778,
     "lat": -19.92083,
     "country": "Brazil"
    },
    {
     "name": "Bengaluru",
     "lon": 77.59369,
     "lat": 12.97194,
     "country": "India"
    },
    {
     "name": "Berlin",
     "lon": 13.41053,
     "lat": 52.52437,
     "country": "Germany"
    },
    {
     "name": "Bern",
     "lon": 7.44744,
     "lat": 46.94809,
     "country": "Switzerland"
    },
    {
     "name": "Bishkek",
     "lon": 74.59,
     "lat": 42.87,
     "country": "Kyrgyzstan"
    },
    {
     "name": "Bissau",
     "lon": -15.59767,
     "lat": 11.86357,
     "country": "Guinea-Bissau"
    },
    {
     "name": "Bogota",
     "lon": -74.08175,
     "lat": 4.60971,
     "country": "Colombia"
    },
    {
     "name": "Brasilia",
     "lon": -47.92972,
     "lat": -15.77972,
     "country": "Brazil"
    },
    {
     "name": "Bratislava",
     "lon": 17.10674,
     "lat": 48.14816,
     "country": "Slovakia"
    },
    {
     "name": "Brazzaville",
     "lon": 15.28318,
     "lat": -4.26613,
     "country": "Republic of the Congo"
    },
    {
     "name": "Bridgetown",
     "lon": -59.62021,
     "lat": 13.10732,
     "country": "Barbados"
    },
    {
     "name": "Brisbane",
     "lon": 153.02809,
     "lat": -27.46794,
     "country": "Australia"
    },
    {
     "name": "Brussels",
     "lon": 4.34878,
     "lat": 50.85045,
     "country": "Belgium"
    },
    {
     "name": "Bucharest",
     "lon": 26.10626,
     "lat": 44.43225,
     "country": "Romania"
    },
    {
     "name": "Budapest",
     "lon": 19.04045,
     "lat": 47.49835,
     "country": "Hungary"
    },
    {
     "name": "Buenos Aires",
     "lon": -58.37723,
     "lat": -34.61315,
     "country": "Argentina"
    },
    {
     "name": "Bujumbura",
     "lon": 29.36142,
     "lat": -3.38193,
     "country": "Burundi"
    },
    {
     "name": "Bursa",
     "lon": 29.06013,
     "lat": 40.19559,
     "country": "Turkey"
    },
    {
     "name": "Busan",
     "lon": 129.03004,
     "lat": 35.10168,
     "country": "South Korea"
    },
    {
     "name": "Cairo",
     "lon": 31.24967,
     "lat": 30.06263,
     "country": "Egypt"
    },
    {
     "name": "Cali",
     "lon": -76.5225,
     "lat": 3.43722,
     "country": "Colombia"
    },
    {
     "name": "Caloocan",
     "lon": 120.96788,
     "lat": 14.64953,
     "country": "Philippines"
    },
    {
     "name": "Camayenne",
     "lon": -13.68778,
     "lat": 9.535,
     "country": "Guinea"
    },
    {
     "name": "Canberra",
     "lon": 149.12807,
     "lat": -35.28346,
     "country": "Australia"
    },
    {
     "name": "Cape Town",
     "lon": 18.42322,
     "lat": -33.92584,
     "country": "South Africa"
    },
    {
     "name": "Caracas",
     "lon": -66.87919,
     "lat": 10.48801,
     "country": "Venezuela"
    },
    {
     "name": "Casablanca",
     "lon": -7.61138,
     "lat": 33.58831,
     "country": "Morocco"
    },
    {
     "name": "Castries",
     "lon": -61.00614,
     "lat": 13.9957,
     "country": "Saint Lucia"
    },
    {
     "name": "Cayenne",
     "lon": -52.33333,
     "lat": 4.93333,
     "country": "French Guiana"
    },
    {
     "name": "Charlotte Amalie",
     "lon": -64.9307,
     "lat": 18.3419,
     "country": "U.S. Virgin Islands"
    },
    {
     "name": "Chengdu",
     "lon": 104.06667,
     "lat": 30.66667,
     "country": "China"
    },
    {
     "name": "Chennai",
     "lon": 80.27847,
     "lat": 13.08784,
     "country": "India"
    },
    {
     "name": "Chicago",
     "lon": -87.65005,
     "lat": 41.85003,
     "country": "United States"
    },
    {
     "name": "Chisinau",
     "lon": 28.8575,
     "lat": 47.00556,
     "country": "Moldova"
    },
    {
     "name": "Chittagong",
     "lon": 91.83168,
     "lat": 22.3384,
     "country": "Bangladesh"
    },
    {
     "name": "Chongqing",
     "lon": 106.55278,
     "lat": 29.56278,
     "country": "China"
    },
    {
     "name": "Colombo",
     "lon": 79.84868,
     "lat": 6.93548,
     "country": "Sri Lanka"
    },
    {
     "name": "Conakry",
     "lon": -13.67729,
     "lat": 9.53795,
     "country": "Guinea"
    },
    {
     "name": "Copenhagen",
     "lon": 12.56553,
     "lat": 55.67594,
     "country": "Denmark"
    },
    {
     "name": "Cordoba",
     "lon": -64.18105,
     "lat": -31.4135,
     "country": "Argentina"
    },
    {
     "name": "Curitiba",
     "lon": -49.27306,
     "lat": -25.42778,
     "country": "Brazil"
    },
    {
     "name": "Daegu",
     "lon": 128.59111,
     "lat": 35.87028,
     "country": "South Korea"
    },
    {
     "name": "Daejeon",
     "lon": 127.38493,
     "lat": 36.34913,
     "country": "South Korea"
    },
    {
     "name": "Dakar",
     "lon": -17.44406,
     "lat": 14.6937,
     "country": "Senegal"
    },
    {
     "name": "Dallas",
     "lon": -96.80667,
     "lat": 32.78306,
     "country": "United States"
    },
    {
     "name": "Damascus",
     "lon": 36.29128,
     "lat": 33.5102,
     "country": "Syria"
    },
    {
     "name": "Dar es Salaam",
     "lon": 39.26951,
     "lat": -6.82349,
     "country": "Tanzania"
    },
    {
     "name": "Delhi",
     "lon": 77.23149,
     "lat": 28.65195,
     "country": "India"
    },
    {
     "name": "Denver",
     "lon": -104.9847,
     "lat": 39.73915,
     "country": "United States"
    },
    {
     "name": "Dhaka",
     "lon": 90.40744,
     "lat": 23.7104,
     "country": "Bangladesh"
    },
    {
     "name": "Dili",
     "lon": 125.57361,
     "lat": -8.55861,
     "country": "Timor Leste"
    },
    {
     "name": "Djibouti",
     "lon": 43.14503,
     "lat": 11.58901,
     "country": "Djibouti"
    },
    {
     "name": "Dodoma",
     "lon": 35.73947,
     "lat": -6.17221,
     "country": "Tanzania"
    },
    {
     "name": "Doha",
     "lon": 51.53096,
     "lat": 25.28545,
     "country": "Qatar"
    },
    {
     "name": "Dongguan",
     "lon": 113.74866,
     "lat": 23.01797,
     "country": "China"
    },
    {
     "name": "Douala",
     "lon": 9.70428,
     "lat": 4.04827,
     "country": "Cameroon"
    },
    {
     "name": "Douglas",
     "lon": -4.48333,
     "lat": 54.15,
     "country": "Isle of Man"
    },
    {
     "name": "Dubai",
     "lon": 55.30927,
     "lat": 25.07725,
     "country": "United Arab Emirates"
    },
    {
     "name": "Dublin",
     "lon": -6.24889,
     "lat": 53.33306,
     "country": "Ireland"
    },
    {
     "name": "Durban",
     "lon": 31.0292,
     "lat": -29.8579,
     "country": "South Africa"
    },
    {
     "name": "Dushanbe",
     "lon": 68.77905,
     "lat": 38.53575,
     "country": "Tajikistan"
    },
    {
     "name": "Faisalabad",
     "lon": 73.08969,
     "lat": 31.41554,
     "country": "Pakistan"
    },
    {
     "name": "Fort-de-France",
     "lon": -61.07418,
     "lat": 14.60365,
     "country": "Martinique"
    },
    {
     "name": "Fortaleza",
     "lon": -38.54306,
     "lat": -3.71722,
     "country": "Brazil"
    },
    {
     "name": "Freetown",
     "lon": -13.2356,
     "lat": 8.48714,
     "country": "Sierra Leone"
    },
    {
     "name": "Fukuoka",
     "lon": 130.41667,
     "lat": 33.6,
     "country": "Japan"
    },
    {
     "name": "Funafuti",
     "lon": 179.19417,
     "lat": -8.52425,
     "country": "Tuvalu"
    },
    {
     "name": "Gaborone",
     "lon": 25.90859,
     "lat": -24.65451,
     "country": "Botswana"
    },
    {
     "name": "George Town",
     "lon": -81.37436,
     "lat": 19.2866,
     "country": "Malaysia"
    },
    {
     "name": "Georgetown",
     "lon": -58.15527,
     "lat": 6.80448,
     "country": "Guyana"
    },
    {
     "name": "Gibraltar",
     "lon": -5.35257,
     "lat": 36.14474,
     "country": "Gibraltar"
    },
    {
     "name": "Gitega",
     "lon": 29.92463,
     "lat": -3.42708,
     "country": "Burundi"
    },
    {
     "name": "Giza",
     "lon": 31.20861,
     "lat": 30.00944,
     "country": "Egypt"
    },
    {
     "name": "Guadalajara",
     "lon": -103.39182,
     "lat": 20.66682,
     "country": "Mexico"
    },
    {
     "name": "Guangzhou",
     "lon": 113.25,
     "lat": 23.11667,
     "country": "China"
    },
    {
     "name": "Guatemala City",
     "lon": -90.51327,
     "lat": 14.64072,
     "country": "Guatemala"
    },
    {
     "name": "Guayaquil",
     "lon": -79.88621,
     "lat": -2.19616,
     "country": "Ecuador"
    },
    {
     "name": "Gujranwala",
     "lon": 74.18705,
     "lat": 32.15567,
     "country": "Pakistan"
    },
    {
     "name": "Gustavia",
     "lon": -62.84978,
     "lat": 17.89618,
     "country": "Saint Barthelemy"
    },
    {
     "name": "Gwangju",
     "lon": 126.91556,
     "lat": 35.15472,
     "country": "South Korea"
    },
    {
     "name": "Hamburg",
     "lon": 9.99302,
     "lat": 53.55073,
     "country": "Germany"
    },
    {
     "name": "Hanoi",
     "lon": 105.84117,
     "lat": 21.0245,
     "country": "Vietnam"
    },
    {
     "name": "Harare",
     "lon": 31.05337,
     "lat": -17.82772,
     "country": "Zimbabwe"
    },
    {
     "name": "Havana",
     "lon": -82.38304,
     "lat": 23.13302,
     "country": "Cuba"
    },
    {
     "name": "Helsinki",
     "lon": 24.93545,
     "lat": 60.16952,
     "country": "Finland"
    },
    {
     "name": "Ho Chi Minh City",
     "lon": 106.62965,
     "lat": 10.82302,
     "country": "Vietnam"
    },
    {
     "name": "Hong Kong",
     "lon": 114.17469,
     "lat": 22.27832,
     "country": "Hong Kong"
    },
    {
     "name": "Honiara",
     "lon": 159.95,
     "lat": -9.43333,
     "country": "Solomon Islands"
    },
    {
     "name": "Honolulu",
     "lon": -157.85833,
     "lat": 21.30694,
     "country": "United States"
    },
    {
     "name": "Houston",
     "lon": -95.36327,
     "lat": 29.76328,
     "country": "United States"
    },
    {
     "name": "Hyderabad",
     "lon": 78.45636,
     "lat": 17.38405,
     "country": "India"
    },
    {
     "name": "Hyderabad",
     "lon": 68.37366,
     "lat": 25.39242,
     "country": "Pakistan"
    },
    {
     "name": "Ibadan",
     "lon": 3.90591,
     "lat": 7.37756,
     "country": "Nigeria"
    },
    {
     "name": "Incheon",
     "lon": 126.70515,
     "lat": 37.45646,
     "country": "South Korea"
    },
    {
     "name": "Isfahan",
     "lon": 51.67462,
     "lat": 32.65246,
     "country": "Iran"
    },
    {
     "name": "Islamabad",
     "lon": 73.04329,
     "lat": 33.72148,
     "country": "Pakistan"
    },
    {
     "name": "Istanbul",
     "lon": 28.94966,
     "lat": 41.01384,
     "country": "Turkey"
    },
    {
     "name": "Izmir",
     "lon": 27.13838,
     "lat": 38.41273,
     "country": "Turkey"
    },
    {
     "name": "Jaipur",
     "lon": 75.78781,
     "lat": 26.91962,
     "country": "India"
    },
    {
     "name": "Jakarta",
     "lon": 106.84513,
     "lat": -6.21462,
     "country": "Indonesia"
    },
    {
     "name": "Jeddah",
     "lon": 39.18624,
     "lat": 21.49012,
     "country": "Saudi Arabia"
    },
    {
     "name": "Jerusalem",
     "lon": 35.21633,
     "lat": 31.76904,
     "country": "Israel"
    },
    {
     "name": "Johannesburg",
     "lon": 28.04363,
     "lat": -26.20227,
     "country": "South Africa"
    },
    {
     "name": "Juarez",
     "lon": -106.46084,
     "lat": 31.72024,
     "country": "Mexico"
    },
    {
     "name": "Juba",
     "lon": 31.58247,
     "lat": 4.85165,
     "country": "South Sudan"
    },
    {
     "name": "Kabul",
     "lon": 69.17233,
     "lat": 34.52813,
     "country": "Afghanistan"
    },
    {
     "name": "Kaduna",
     "lon": 7.43879,
     "lat": 10.52641,
     "country": "Nigeria"
    },
    {
     "name": "Kampala",
     "lon": 32.58219,
     "lat": 0.31628,
     "country": "Uganda"
    },
    {
     "name": "Kano",
     "lon": 8.51672,
     "lat": 12.00012,
     "country": "Nigeria"
    },
    {
     "name": "Kanpur",
     "lon": 80.34975,
     "lat": 26.46523,
     "country": "India"
    },
    {
     "name": "Kaohsiung",
     "lon": 120.31333,
     "lat": 22.61626,
     "country": "Taiwan"
    },
    {
     "name": "Karachi",
     "lon": 67.0104,
     "lat": 24.8608,
     "country": "Pakistan"
    },
    {
     "name": "Karaj",
     "lon": 50.99155,
     "lat": 35.83266,
     "country": "Iran"
    },
    {
     "name": "Kathmandu",
     "lon": 85.3206,
     "lat": 27.70169,
     "country": "Nepal"
    },
    {
     "name": "Kawasaki",
     "lon": 139.71722,
     "lat": 35.52056,
     "country": "Japan"
    },
    {
     "name": "Kharkiv",
     "lon": 36.25272,
     "lat": 49.98081,
     "country": "Ukraine"
    },
    {
     "name": "Khartoum",
     "lon": 32.53241,
     "lat": 15.55177,
     "country": "Sudan"
    },
    {
     "name": "Khulna",
     "lon": 89.56439,
     "lat": 22.80979,
     "country": "Bangladesh"
    },
    {
     "name": "Kigali",
     "lon": 30.05885,
     "lat": -1.94995,
     "country": "Rwanda"
    },
    {
     "name": "Kingsburg",
     "lon": -119.554,
     "lat": 36.5138,
     "country": "United States"
    },
    {
     "name": "Kingston",
     "lon": -76.79358,
     "lat": 17.99702,
     "country": "Jamaica"
    },
    {
     "name": "Kingstown",
     "lon": -61.22742,
     "lat": 13.15527,
     "country": "Saint Vincent and the Grenadines"
    },
    {
     "name": "Kinshasa",
     "lon": 15.31357,
     "lat": -4.32758,
     "country": "Democratic Republic of the Congo"
    },
    {
     "name": "Kobe",
     "lon": 135.183,
     "lat": 34.6913,
     "country": "Japan"
    },
    {
     "name": "Kolkata",
     "lon": 88.36304,
     "lat": 22.56263,
     "country": "India"
    },
    {
     "name": "Kota Bharu",
     "lon": 102.24333,
     "lat": 6.12361,
     "country": "Malaysia"
    },
    {
     "name": "Kowloon",
     "lon": 114.18333,
     "lat": 22.31667,
     "country": "Hong Kong"
    },
    {
     "name": "Kuala Lumpur",
     "lon": 101.68653,
     "lat": 3.1412,
     "country": "Malaysia"
    },
    {
     "name": "Kumasi",
     "lon": -1.62443,
     "lat": 6.68848,
     "country": "Ghana"
    },
    {
     "name": "Kuwait",
     "lon": 47.97833,
     "lat": 29.36972,
     "country": "Kuwait"
    },
    {
     "name": "Kyiv",
     "lon": 30.5238,
     "lat": 50.45466,
     "country": "Ukraine"
    },
    {
     "name": "Kyoto",
     "lon": 135.75385,
     "lat": 35.02107,
     "country": "Japan"
    },
    {
     "name": "La Paz",
     "lon": -68.15,
     "lat": -16.5,
     "country": "Bolivia"
    },
    {
     "name": "Lagos",
     "lon": 3.39467,
     "lat": 6.45407,
     "country": "Nigeria"
    },
    {
     "name": "Lahore",
     "lon": 74.35071,
     "lat": 31.558,
     "country": "Pakistan"
    },
    {
     "name": "Libreville",
     "lon": 9.45356,
     "lat": 0.39241,
     "country": "Gabon"
    },
    {
     "name": "Lilongwe",
     "lon": 33.78725,
     "lat": -13.96692,
     "country": "Malawi"
    },
    {
     "name": "Lima",
     "lon": -77.02824,
     "lat": -12.04318,
     "country": "Peru"
    },
    {
     "name": "Lisbon",
     "lon": -9.13333,
     "lat": 38.71667,
     "country": "Portugal"
    },
    {
     "name": "Ljubljana",
     "lon": 14.50513,
     "lat": 46.05108,
     "country": "Slovenia"
    },
    {
     "name": "Lome",
     "lon": 1.22154,
     "lat": 6.12874,
     "country": "Togo"
    },
    {
     "name": "London",
     "lon": -0.12574,
     "lat": 51.50853,
     "country": "United Kingdom"
    },
    {
     "name": "Los Angeles",
     "lon": -118.24368,
     "lat": 34.05223,
     "country": "United States"
    },
    {
     "name": "Luanda",
     "lon": 13.23432,
     "lat": -8.83682,
     "country": "Angola"
    },
    {
     "name": "Lubumbashi",
     "lon": 27.47938,
     "lat": -11.66089,
     "country": "Democratic Republic of the Congo"
    },
    {
     "name": "Lusaka",
     "lon": 28.28713,
     "lat": -15.40669,
     "country": "Zambia"
    },
    {
     "name": "Luxembourg",
     "lon": 6.13,
     "lat": 49.61167,
     "country": "Luxembourg"
    },
    {
     "name": "Macau",
     "lon": 113.54611,
     "lat": 22.20056,
     "country": "Macao"
    },
    {
     "name": "Madrid",
     "lon": -3.70256,
     "lat": 40.4165,
     "country": "Spain"
    },
    {
     "name": "Majuro",
     "lon": 171.38027,
     "lat": 7.08971,
     "country": "Marshall Islands"
    },
    {
     "name": "Makassar",
     "lon": 119.43194,
     "lat": -5.14861,
     "country": "Indonesia"
    },
    {
     "name": "Malabo",
     "lon": 8.78166,
     "lat": 3.75578,
     "country": "Equatorial Guinea"
    },
    {
     "name": "Male",
     "lon": 73.50916,
     "lat": 4.17521,
     "country": "Maldives"
    },
    {
     "name": "Mamoudzou",
     "lon": 45.22878,
     "lat": -12.78234,
     "country": "Mayotte"
    },
    {
     "name": "Managua",
     "lon": -86.2504,
     "lat": 12.13282,
     "country": "Nicaragua"
    },
    {
     "name": "Manama",
     "lon": 50.58565,
     "lat": 26.22787,
     "country": "Bahrain"
    },
    {
     "name": "Manaus",
     "lon": -60.025,
     "lat": -3.10194,
     "country": "Brazil"
    },
    {
     "name": "Manila",
     "lon": 120.9822,
     "lat": 14.6042,
     "country": "Philippines"
    },
    {
     "name": "Maputo",
     "lon": 32.58322,
     "lat": -25.96553,
     "country": "Mozambique"
    },
    {
     "name": "Maracaibo",
     "lon": -71.61245,
     "lat": 10.66663,
     "country": "Venezuela"
    },
    {
     "name": "Maracay",
     "lon": -67.59113,
     "lat": 10.23535,
     "country": "Venezuela"
    },
    {
     "name": "Mariehamn",
     "lon": 19.93481,
     "lat": 60.09726,
     "country": "Aland Islands"
    },
    {
     "name": "Marigot",
     "lon": -63.08302,
     "lat": 18.06819,
     "country": "Saint Martin"
    },
    {
     "name": "Maseru",
     "lon": 27.48333,
     "lat": -29.31667,
     "country": "Lesotho"
    },
    {
     "name": "Mashhad",
     "lon": 59.56796,
     "lat": 36.31559,
     "country": "Iran"
    },
    {
     "name": "Mbabane",
     "lon": 31.13333,
     "lat": -26.31667,
     "country": "Eswatini"
    },
    {
     "name": "Mecca",
     "lon": 39.82563,
     "lat": 21.42664,
     "country": "Saudi Arabia"
    },
    {
     "name": "Medan",
     "lon": 98.66667,
     "lat": 3.58333,
     "country": "Indonesia"
    },
    {
     "name": "Medellin",
     "lon": -75.56359,
     "lat": 6.25184,
     "country": "Colombia"
    },
    {
     "name": "Medina",
     "lon": 39.61417,
     "lat": 24.46861,
     "country": "Saudi Arabia"
    },
    {
     "name": "Melbourne",
     "lon": 144.96332,
     "lat": -37.814,
     "country": "Australia"
    },
    {
     "name": "Mexico City",
     "lon": -99.12766,
     "lat": 19.42847,
     "country": "Mexico"
    },
    {
     "name": "Miami",
     "lon": -80.19366,
     "lat": 25.77427,
     "country": "United States"
    },
    {
     "name": "Minsk",
     "lon": 27.56667,
     "lat": 53.9,
     "country": "Belarus"
    },
    {
     "name": "Mogadishu",
     "lon": 45.34375,
     "lat": 2.03711,
     "country": "Somalia"
    },
    {
     "name": "Monaco",
     "lon": 7.41667,
     "lat": 43.73333,
     "country": "Monaco"
    },
    {
     "name": "Monrovia",
     "lon": -10.7969,
     "lat": 6.30054,
     "country": "Liberia"
    },
    {
     "name": "Montevideo",
     "lon": -56.18816,
     "lat": -34.90328,
     "country": "Uruguay"
    },
    {
     "name": "Montreal",
     "lon": -73.58781,
     "lat": 45.50884,
     "country": "Canada"
    },
    {
     "name": "Moroni",
     "lon": 43.25506,
     "lat": -11.70216,
     "country": "Comoros"
    },
    {
     "name": "Moscow",
     "lon": 37.61556,
     "lat": 55.75222,
     "country": "Russia"
    },
    {
     "name": "Mosul",
     "lon": 43.11889,
     "lat": 36.335,
     "country": "Iraq"
    },
    {
     "name": "Multan",
     "lon": 71.47824,
     "lat": 30.19679,
     "country": "Pakistan"
    },
    {
     "name": "Mumbai",
     "lon": 72.88261,
     "lat": 19.07283,
     "country": "India"
    },
    {
     "name": "Muscat",
     "lon": 58.40778,
     "lat": 23.58413,
     "country": "Oman"
    },
    {
     "name": "N'Djamena",
     "lon": 15.0444,
     "lat": 12.10672,
     "country": "Chad"
    },
    {
     "name": "Nagoya",
     "lon": 136.90641,
     "lat": 35.18147,
     "country": "Japan"
    },
    {
     "name": "Nairobi",
     "lon": 36.81667,
     "lat": -1.28333,
     "country": "Kenya"
    },
    {
     "name": "Nanchong",
     "lon": 106.08473,
     "lat": 30.79508,
     "country": "China"
    },
    {
     "name": "Nanjing",
     "lon": 118.77778,
     "lat": 32.06167,
     "country": "China"
    },
    {
     "name": "Nassau",
     "lon": -77.34306,
     "lat": 25.05823,
     "country": "Bahamas"
    },
    {
     "name": "Nay Pyi Taw",
     "lon": 96.12972,
     "lat": 19.745,
     "country": "Myanmar"
    },
    {
     "name": "New York",
     "lon": -74.00597,
     "lat": 40.71427,
     "country": "United States"
    },
    {
     "name": "Niamey",
     "lon": 2.1098,
     "lat": 13.51366,
     "country": "Niger"
    },
    {
     "name": "Nicosia",
     "lon": 33.3642,
     "lat": 35.17531,
     "country": "Cyprus"
    },
    {
     "name": "Nouakchott",
     "lon": -15.9785,
     "lat": 18.08581,
     "country": "Mauritania"
    },
    {
     "name": "Noumea",
     "lon": 166.44884,
     "lat": -22.27407,
     "country": "New Caledonia"
    },
    {
     "name": "Novosibirsk",
     "lon": 82.9346,
     "lat": 55.0415,
     "country": "Russia"
    },
    {
     "name": "Nuku'alofa",
     "lon": -175.2018,
     "lat": -21.13938,
     "country": "Tonga"
    },
    {
     "name": "Nur-Sultan",
     "lon": 71.44598,
     "lat": 51.1801,
     "country": "Kazakhstan"
    },
    {
     "name": "Nuuk",
     "lon": -51.72157,
     "lat": 64.18347,
     "country": "Greenland"
    },
    {
     "name": "Oranjestad",
     "lon": -70.02703,
     "lat": 12.52398,
     "country": "Aruba"
    },
    {
     "name": "Osaka",
     "lon": 135.50218,
     "lat": 34.69374,
     "country": "Japan"
    },
    {
     "name": "Oslo",
     "lon": 10.74609,
     "lat": 59.91273,
     "country": "Norway"
    },
    {
     "name": "Ottawa",
     "lon": -75.69812,
     "lat": 45.41117,
     "country": "Canada"
    },
    {
     "name": "Ouagadougou",
     "lon": -1.53388,
     "lat": 12.36566,
     "country": "Burkina Faso"
    },
    {
     "name": "Pago Pago",
     "lon": -170.7025,
     "lat": -14.27806,
     "country": "American Samoa"
    },
    {
     "name": "Palembang",
     "lon": 104.7458,
     "lat": -2.91673,
     "country": "Indonesia"
    },
    {
     "name": "Palo Alto",
     "lon": -122.14302,
     "lat": 37.44188,
     "country": "United States"
    },
    {
     "name": "Panama",
     "lon": -79.51973,
     "lat": 8.9936,
     "country": "Panama"
    },
    {
     "name": "Papeete",
     "lon": -149.5665,
     "lat": -17.53733,
     "country": "French Polynesia"
    },
    {
     "name": "Paramaribo",
     "lon": -55.16682,
     "lat": 5.86638,
     "country": "Suriname"
    },
    {
     "name": "Paris",
     "lon": 2.3488,
     "lat": 48.85341,
     "country": "France"
    },
    {
     "name": "Perth",
     "lon": 115.8614,
     "lat": -31.95224,
     "country": "Australia"
    },
    {
     "name": "Philadelphia",
     "lon": -75.16379,
     "lat": 39.95233,
     "country": "United States"
    },
    {
     "name": "Phnom Penh",
     "lon": 104.91601,
     "lat": 11.56245,
     "country": "Cambodia"
    },
    {
     "name": "Phoenix",
     "lon": -112.07404,
     "lat": 33.44838,
     "country": "United States"
    },
    {
     "name": "Podgorica",
     "lon": 19.26361,
     "lat": 42.44111,
     "country": "Montenegro"
    },
    {
     "name": "Port Louis",
     "lon": 57.49889,
     "lat": -20.16194,
     "country": "Mauritius"
    },
    {
     "name": "Port Moresby",
     "lon": 147.15089,
     "lat": -9.47723,
     "country": "Papua New Guinea"
    },
    {
     "name": "Port of Spain",
     "lon": -61.51889,
     "lat": 10.66668,
     "country": "Trinidad and Tobago"
    },
    {
     "name": "Port-Vila",
     "lon": 168.31366,
     "lat": -17.73648,
     "country": "Vanuatu"
    },
    {
     "name": "Port-au-Prince",
     "lon": -72.33881,
     "lat": 18.54349,
     "country": "Haiti"
    },
    {
     "name": "Porto Alegre",
     "lon": -51.23019,
     "lat": -30.03283,
     "country": "Brazil"
    },
    {
     "name": "Porto-Novo",
     "lon": 2.60359,
     "lat": 6.49646,
     "country": "Benin"
    },
    {
     "name": "Prague",
     "lon": 14.42076,
     "lat": 50.08804,
     "country": "Czechia"
    },
    {
     "name": "Praia",
     "lon": -23.51254,
     "lat": 14.93152,
     "country": "Cabo Verde"
    },
    {
     "name": "Pretoria",
     "lon": 28.18783,
     "lat": -25.74486,
     "country": "South Africa"
    },
    {
     "name": "Pristina",
     "lon": 21.16688,
     "lat": 42.67272,
     "country": "Kosovo"
    },
    {
     "name": "Puebla",
     "lon": -98.20346,
     "lat": 19.03793,
     "country": "Mexico"
    },
    {
     "name": "Pune",
     "lon": 73.85535,
     "lat": 18.51957,
     "country": "India"
    },
    {
     "name": "Pyongyang",
     "lon": 125.75432,
     "lat": 39.03385,
     "country": "North Korea"
    },
    {
     "name": "Quezon City",
     "lon": 121.0509,
     "lat": 14.6488,
     "country": "Philippines"
    },
    {
     "name": "Quito",
     "lon": -78.52495,
     "lat": -0.22985,
     "country": "Ecuador"
    },
    {
     "name": "Rabat",
     "lon": -6.83255,
     "lat": 34.01325,
     "country": "Morocco"
    },
    {
     "name": "Rawalpindi",
     "lon": 73.0479,
     "lat": 33.59733,
     "country": "Pakistan"
    },
    {
     "name": "Recife",
     "lon": -34.88111,
     "lat": -8.05389,
     "country": "Brazil"
    },
    {
     "name": "Reykjavik",
     "lon": -21.89541,
     "lat": 64.13548,
     "country": "Iceland"
    },
    {
     "name": "Riga",
     "lon": 24.10589,
     "lat": 56.946,
     "country": "Latvia"
    },
    {
     "name": "Rio de Janeiro",
     "lon": -43.18223,
     "lat": -22.90642,
     "country": "Brazil"
    },
    {
     "name": "Riyadh",
     "lon": 46.72185,
     "lat": 24.68773,
     "country": "Saudi Arabia"
    },
    {
     "name": "Road Town",
     "lon": -64.62079,
     "lat": 18.42693,
     "country": "British Virgin Islands"
    },
    {
     "name": "Rome",
     "lon": 12.51133,
     "lat": 41.89193,
     "country": "Italy"
    },
    {
     "name": "Roseau",
     "lon": -61.38808,
     "lat": 15.30174,
     "country": "Dominica"
    },
    {
     "name": "Saint George's",
     "lon": -61.75226,
     "lat": 12.05288,
     "country": "Grenada"
    },
    {
     "name": "Saint Helier",
     "lon": -2.10491,
     "lat": 49.18804,
     "country": "Jersey"
    },
    {
     "name": "Saint John's",
     "lon": -61.84329,
     "lat": 17.12096,
     "country": "Antigua and Barbuda"
    },
    {
     "name": "Saint Peter Port",
     "lon": -2.53527,
     "lat": 49.45981,
     "country": "Guernsey"
    },
    {
     "name": "Saint Petersburg",
     "lon": 30.31413,
     "lat": 59.93863,
     "country": "Russia"
    },
    {
     "name": "Saint-Denis",
     "lon": 55.4504,
     "lat": -20.88231,
     "country": "Reunion"
    },
    {
     "name": "Saint-Pierre",
     "lon": -56.1773,
     "lat": 46.77914,
     "country": "Reunion"
    },
    {
     "name": "Saipan",
     "lon": 145.7545,
     "lat": 15.21233,
     "country": "Northern Mariana Islands"
    },
    {
     "name": "Salvador",
     "lon": -38.51083,
     "lat": -12.97111,
     "country": "Brazil"
    },
    {
     "name": "San Antonio",
     "lon": -98.49363,
     "lat": 29.42412,
     "country": "United States"
    },
    {
     "name": "San Diego",
     "lon": -117.16472,
     "lat": 32.71571,
     "country": "United States"
    },
    {
     "name": "San Francisco",
     "lon": -122.41942,
     "lat": 37.77493,
     "country": "United States"
    },
    {
     "name": "San Jose",
     "lon": -84.08333,
     "lat": 9.93333,
     "country": "United States"
    },
    {
     "name": "San Juan",
     "lon": -66.10572,
     "lat": 18.46633,
     "country": "Argentina"
    },
    {
     "name": "San Marino",
     "lon": 12.44639,
     "lat": 43.93667,
     "country": "United States"
    },
    {
     "name": "San Salvador",
     "lon": -89.18718,
     "lat": 13.68935,
     "country": "El Salvador"
    },
    {
     "name": "Sanaa",
     "lon": 44.20667,
     "lat": 15.35472,
     "country": "Yemen"
    },
    {
     "name": "Santa Cruz de la Sierra",
     "lon": -63.18117,
     "lat": -17.78629,
     "country": "Bolivia"
    },
    {
     "name": "Santiago",
     "lon": -70.64827,
     "lat": -33.45694,
     "country": "Chile"
    },
    {
     "name": "Santo Domingo",
     "lon": -69.89232,
     "lat": 18.47186,
     "country": "Dominican Republic"
    },
    {
     "name": "Sao Paulo",
     "lon": -46.63611,
     "lat": -23.5475,
     "country": "Brazil"
    },
    {
     "name": "Sao Tome",
     "lon": 6.72732,
     "lat": 0.33654,
     "country": "Sao Tome and Principe"
    },
    {
     "name": "Sapporo",
     "lon": 141.35,
     "lat": 43.06667,
     "country": "Japan"
    },
    {
     "name": "Sarajevo",
     "lon": 18.35644,
     "lat": 43.84864,
     "country": "Bosnia and Herzegovina"
    },
    {
     "name": "Seattle",
     "lon": -122.33207,
     "lat": 47.60621,
     "country": "United States"
    },
    {
     "name": "Semarang",
     "lon": 110.42083,
     "lat": -6.99306,
     "country": "Indonesia"
    },
    {
     "name": "Seoul",
     "lon": 126.9784,
     "lat": 37.566,
     "country": "South Korea"
    },
    {
     "name": "Shanghai",
     "lon": 121.45806,
     "lat": 31.22222,
     "country": "China"
    },
    {
     "name": "Sharjah",
     "lon": 55.41206,
     "lat": 25.33737,
     "country": "United Arab Emirates"
    },
    {
     "name": "Shenzhen",
     "lon": 114.0683,
     "lat": 22.54554,
     "country": "China"
    },
    {
     "name": "Singapore",
     "lon": 103.85007,
     "lat": 1.28967,
     "country": "Singapore"
    },
    {
     "name": "Skopje",
     "lon": 21.43141,
     "lat": 41.99646,
     "country": "North Macedonia"
    },
    {
     "name": "Sofia",
     "lon": 23.32415,
     "lat": 42.69751,
     "country": "Bulgaria"
    },
    {
     "name": "South Tangerang",
     "lon": 106.71789,
     "lat": -6.28862,
     "country": "Indonesia"
    },
    {
     "name": "Soweto",
     "lon": 27.85849,
     "lat": -26.26781,
     "country": "South Africa"
    },
    {
     "name": "Stockholm",
     "lon": 18.06871,
     "lat": 59.32938,
     "country": "Sweden"
    },
    {
     "name": "Sucre",
     "lon": -65.26274,
     "lat": -19.03332,
     "country": "Bolivia"
    },
    {
     "name": "Surabaya",
     "lon": 112.75083,
     "lat": -7.24917,
     "country": "Indonesia"
    },
    {
     "name": "Surat",
     "lon": 72.83023,
     "lat": 21.19594,
     "country": "India"
    },
    {
     "name": "Suva",
     "lon": 178.44149,
     "lat": -18.14161,
     "country": "Fiji"
    },
    {
     "name": "Sydney",
     "lon": 151.20732,
     "lat": -33.86785,
     "country": "Australia"
    },
    {
     "name": "Tabriz",
     "lon": 46.2919,
     "lat": 38.08,
     "country": "Iran"
    },
    {
     "name": "Taipei",
     "lon": 121.53185,
     "lat": 25.04776,
     "country": "Taiwan"
    },
    {
     "name": "Tallinn",
     "lon": 24.75353,
     "lat": 59.43696,
     "country": "Estonia"
    },
    {
     "name": "Tangerang",
     "lon": 106.63,
     "lat": -6.17806,
     "country": "Indonesia"
    },
    {
     "name": "Tarawa",
     "lon": 172.97696,
     "lat": 1.3278,
     "country": "Kiribati"
    },
    {
     "name": "Tashkent",
     "lon": 69.21627,
     "lat": 41.26465,
     "country": "Uzbekistan"
    },
    {
     "name": "Tbilisi",
     "lon": 44.83368,
     "lat": 41.69411,
     "country": "Georgia"
    },
    {
     "name": "Tegucigalpa",
     "lon": -87.20681,
     "lat": 14.0818,
     "country": "Honduras"
    },
    {
     "name": "Tehran",
     "lon": 51.42151,
     "lat": 35.69439,
     "country": "Iran"
    },
    {
     "name": "Tel Aviv",
     "lon": 34.78057,
     "lat": 32.08088,
     "country": "Israel"
    },
    {
     "name": "Thimphu",
     "lon": 89.64191,
     "lat": 27.46609,
     "country": "Bhutan"
    },
    {
     "name": "Tianjin",
     "lon": 117.17667,
     "lat": 39.14222,
     "country": "China"
    },
    {
     "name": "Tijuana",
     "lon": -117.00371,
     "lat": 32.5027,
     "country": "Mexico"
    },
    {
     "name": "Tirana",
     "lon": 19.81889,
     "lat": 41.3275,
     "country": "Albania"
    },
    {
     "name": "Tokyo",
     "lon": 139.69171,
     "lat": 35.6895,
     "country": "Japan"
    },
    {
     "name": "Toronto",
     "lon": -79.4163,
     "lat": 43.70011,
     "country": "Canada"
    },
    {
     "name": "Torshavn",
     "lon": -6.77164,
     "lat": 62.00973,
     "country": "Faroe Islands"
    },
    {
     "name": "Tripoli",
     "lon": 13.18733,
     "lat": 32.88743,
     "country": "Libya"
    },
    {
     "name": "Tunis",
     "lon": 10.16579,
     "lat": 36.81897,
     "country": "Tunisia"
    },
    {
     "name": "Ulan Bator",
     "lon": 106.88324,
     "lat": 47.90771,
     "country": "Mongolia"
    },
    {
     "name": "Vaduz",
     "lon": 9.52154,
     "lat": 47.14151,
     "country": "Liechtenstein"
    },
    {
     "name": "Valencia",
     "lon": -68.00765,
     "lat": 10.16202,
     "country": "Venezuela"
    },
    {
     "name": "Valletta",
     "lon": 14.5148,
     "lat": 35.89968,
     "country": "Malta"
    },
    {
     "name": "Vancouver",
     "lon": -123.11934,
     "lat": 49.24966,
     "country": "Canada"
    },
    {
     "name": "Victoria",
     "lon": 55.45501,
     "lat": -4.62001,
     "country": "Canada"
    },
    {
     "name": "Vienna",
     "lon": 16.37208,
     "lat": 48.20849,
     "country": "Austria"
    },
    {
     "name": "Vientiane",
     "lon": 102.6,
     "lat": 17.96667,
     "country": "Laos"
    },
    {
     "name": "Vilnius",
     "lon": 25.2798,
     "lat": 54.68916,
     "country": "Lithuania"
    },
    {
     "name": "Warsaw",
     "lon": 21.01178,
     "lat": 52.22977,
     "country": "Poland"
    },
    {
     "name": "Washington",
     "lon": -77.03637,
     "lat": 38.89511,
     "country": "United States"
    },
    {
     "name": "Wellington",
     "lon": 174.77557,
     "lat": -41.28664,
     "country": "New Zealand"
    },
    {
     "name": "Willemstad",
     "lon": -68.93354,
     "lat": 12.1084,
     "country": "Curacao"
    },
    {
     "name": "Windhoek",
     "lon": 17.08323,
     "lat": -22.55941,
     "country": "Namibia"
    },
    {
     "name": "Wuhan",
     "lon": 114.26667,
     "lat": 30.58333,
     "country": "China"
    },
    {
     "name": "Xi'an",
     "lon": 108.92861,
     "lat": 34.25833,
     "country": "China"
    },
    {
     "name": "Yamoussoukro",
     "lon": -5.27674,
     "lat": 6.82055,
     "country": "Ivory Coast"
    },
    {
     "name": "Yangon",
     "lon": 96.15611,
     "lat": 16.80528,
     "country": "Myanmar"
    },
    {
     "name": "Yaounde",
     "lon": 11.51667,
     "lat": 3.86667,
     "country": "Cameroon"
    },
    {
     "name": "Yekaterinburg",
     "lon": 60.6122,
     "lat": 56.8519,
     "country": "Russia"
    },
    {
     "name": "Yerevan",
     "lon": 44.51361,
     "lat": 40.18111,
     "country": "Armenia"
    },
    {
     "name": "Yokohama",
     "lon": 139.65,
     "lat": 35.43333,
     "country": "Japan"
    },
    {
     "name": "Zagreb",
     "lon": 15.97798,
     "lat": 45.81444,
     "country": "Croatia"
    }
]